[
  {
    "city": "Beograd", 
    "lat": "44.8200", 
    "lng": "20.4600", 
    "country": "Serbia", 
    "iso2": "RS", 
    "admin_name": "Beograd", 
    "capital": "primary", 
    "population": "1378682", 
    "population_proper": "1378682"
  }, 
  {
    "city": "Novi Sad", 
    "lat": "45.2542", 
    "lng": "19.8425", 
    "country": "Serbia", 
    "iso2": "RS", 
    "admin_name": "Novi Sad", 
    "capital": "admin", 
    "population": "380000", 
    "population_proper": "380000"
  }, 
  {
    "city": "Niš", 
    "lat": "43.3192", 
    "lng": "21.8961", 
    "country": "Serbia", 
    "iso2": "RS", 
    "admin_name": "Niš", 
    "capital": "admin", 
    "population": "183164", 
    "population_proper": "183164"
  }, 
  {
    "city": "Zemun", 
    "lat": "44.8500", 
    "lng": "20.4000", 
    "country": "Serbia", 
    "iso2": "RS", 
    "admin_name": "Beograd", 
    "capital": "minor", 
    "population": "161596", 
    "population_proper": "161596"
  }, 
  {
    "city": "Kragujevac", 
    "lat": "44.0142", 
    "lng": "20.9394", 
    "country": "Serbia", 
    "iso2": "RS", 
    "admin_name": "Kragujevac", 
    "capital": "admin", 
    "population": "150623", 
    "population_proper": "150623"
  }, 
  {
    "city": "Valjevo", 
    "lat": "44.2667", 
    "lng": "19.8833", 
    "country": "Serbia", 
    "iso2": "RS", 
    "admin_name": "Valjevo", 
    "capital": "admin", 
    "population": "90312", 
    "population_proper": "90312"
  }, 
  {
    "city": "Loznica", 
    "lat": "44.5333", 
    "lng": "19.2258", 
    "country": "Serbia", 
    "iso2": "RS", 
    "admin_name": "Loznica", 
    "capital": "admin", 
    "population": "86413", 
    "population_proper": "86413"
  }, 
  {
    "city": "Sremska Mitrovica", 
    "lat": "44.9700", 
    "lng": "19.6125", 
    "country": "Serbia", 
    "iso2": "RS", 
    "admin_name": "Sremska Mitrovica", 
    "capital": "admin", 
    "population": "79940", 
    "population_proper": "79940"
  }, 
  {
    "city": "Zrenjanin", 
    "lat": "45.3833", 
    "lng": "20.3894", 
    "country": "Serbia", 
    "iso2": "RS", 
    "admin_name": "Zrenjanin", 
    "capital": "admin", 
    "population": "76511", 
    "population_proper": "76511"
  }, 
  {
    "city": "Pančevo", 
    "lat": "44.8706", 
    "lng": "20.6403", 
    "country": "Serbia", 
    "iso2": "RS", 
    "admin_name": "Pančevo", 
    "capital": "admin", 
    "population": "76203", 
    "population_proper": "76203"
  }, 
  {
    "city": "Stara Pazova", 
    "lat": "44.9833", 
    "lng": "20.1667", 
    "country": "Serbia", 
    "iso2": "RS", 
    "admin_name": "Stara Pazova", 
    "capital": "admin", 
    "population": "71931", 
    "population_proper": "71931"
  }, 
  {
    "city": "Čačak", 
    "lat": "43.8914", 
    "lng": "20.3497", 
    "country": "Serbia", 
    "iso2": "RS", 
    "admin_name": "Čačak", 
    "capital": "admin", 
    "population": "71883", 
    "population_proper": "71883"
  }, 
  {
    "city": "Kraljevo", 
    "lat": "43.7234", 
    "lng": "20.6870", 
    "country": "Serbia", 
    "iso2": "RS", 
    "admin_name": "Kraljevo", 
    "capital": "admin", 
    "population": "66688", 
    "population_proper": "66688"
  }, 
  {
    "city": "Novi Pazar", 
    "lat": "43.1500", 
    "lng": "20.5167", 
    "country": "Serbia", 
    "iso2": "RS", 
    "admin_name": "Novi Pazar", 
    "capital": "admin", 
    "population": "66527", 
    "population_proper": "66527"
  }, 
  {
    "city": "Leskovac", 
    "lat": "42.9981", 
    "lng": "21.9461", 
    "country": "Serbia", 
    "iso2": "RS", 
    "admin_name": "Leskovac", 
    "capital": "admin", 
    "population": "60288", 
    "population_proper": "20913"
  }, 
  {
    "city": "Užice", 
    "lat": "43.8500", 
    "lng": "19.8500", 
    "country": "Serbia", 
    "iso2": "RS", 
    "admin_name": "Užice", 
    "capital": "admin", 
    "population": "59747", 
    "population_proper": "59747"
  }, 
  {
    "city": "Kruševac", 
    "lat": "43.5833", 
    "lng": "21.3267", 
    "country": "Serbia", 
    "iso2": "RS", 
    "admin_name": "Kruševac", 
    "capital": "admin", 
    "population": "58745", 
    "population_proper": "58745"
  }, 
  {
    "city": "Vranje", 
    "lat": "42.5542", 
    "lng": "21.8972", 
    "country": "Serbia", 
    "iso2": "RS", 
    "admin_name": "Vranje", 
    "capital": "admin", 
    "population": "55138", 
    "population_proper": "55138"
  }, 
  {
    "city": "Ruma", 
    "lat": "45.0000", 
    "lng": "19.8333", 
    "country": "Serbia", 
    "iso2": "RS", 
    "admin_name": "Ruma", 
    "capital": "admin", 
    "population": "54339", 
    "population_proper": "54339"
  }, 
  {
    "city": "Mladenovac", 
    "lat": "44.4333", 
    "lng": "20.7000", 
    "country": "Serbia", 
    "iso2": "RS", 
    "admin_name": "Beograd", 
    "capital": "minor", 
    "population": "53050", 
    "population_proper": "53050"
  }, 
  {
    "city": "Sombor", 
    "lat": "45.7833", 
    "lng": "19.1167", 
    "country": "Serbia", 
    "iso2": "RS", 
    "admin_name": "Sombor", 
    "capital": "admin", 
    "population": "51471", 
    "population_proper": "51471"
  }, 
  {
    "city": "Batajnica", 
    "lat": "44.9022", 
    "lng": "20.2814", 
    "country": "Serbia", 
    "iso2": "RS", 
    "admin_name": "Beograd", 
    "capital": "", 
    "population": "48600", 
    "population_proper": "48600"
  }, 
  {
    "city": "Inđija", 
    "lat": "45.0500", 
    "lng": "20.0833", 
    "country": "Serbia", 
    "iso2": "RS", 
    "admin_name": "Inđija", 
    "capital": "admin", 
    "population": "47433", 
    "population_proper": "47433"
  }, 
  {
    "city": "Borča", 
    "lat": "44.8700", 
    "lng": "20.4500", 
    "country": "Serbia", 
    "iso2": "RS", 
    "admin_name": "Beograd", 
    "capital": "", 
    "population": "46086", 
    "population_proper": "46086"
  }, 
  {
    "city": "Surčin", 
    "lat": "44.8000", 
    "lng": "20.2833", 
    "country": "Serbia", 
    "iso2": "RS", 
    "admin_name": "Beograd", 
    "capital": "minor", 
    "population": "43819", 
    "population_proper": "43819"
  }, 
  {
    "city": "Kula", 
    "lat": "45.6000", 
    "lng": "19.5333", 
    "country": "Serbia", 
    "iso2": "RS", 
    "admin_name": "Kula", 
    "capital": "admin", 
    "population": "43101", 
    "population_proper": "43101"
  }, 
  {
    "city": "Kikinda", 
    "lat": "45.8333", 
    "lng": "20.4500", 
    "country": "Serbia", 
    "iso2": "RS", 
    "admin_name": "Kikinda", 
    "capital": "admin", 
    "population": "38065", 
    "population_proper": "38065"
  }, 
  {
    "city": "Bečej", 
    "lat": "45.6167", 
    "lng": "20.0333", 
    "country": "Serbia", 
    "iso2": "RS", 
    "admin_name": "Bečej", 
    "capital": "admin", 
    "population": "37351", 
    "population_proper": "37351"
  }, 
  {
    "city": "Prijepolje", 
    "lat": "43.5439", 
    "lng": "19.6514", 
    "country": "Serbia", 
    "iso2": "RS", 
    "admin_name": "Prijepolje", 
    "capital": "admin", 
    "population": "37059", 
    "population_proper": "37059"
  }, 
  {
    "city": "Vršac", 
    "lat": "45.1167", 
    "lng": "21.3033", 
    "country": "Serbia", 
    "iso2": "RS", 
    "admin_name": "Vršac", 
    "capital": "admin", 
    "population": "35701", 
    "population_proper": "35701"
  }, 
  {
    "city": "Šid", 
    "lat": "45.1167", 
    "lng": "19.2333", 
    "country": "Serbia", 
    "iso2": "RS", 
    "admin_name": "Šid", 
    "capital": "admin", 
    "population": "34188", 
    "population_proper": "34188"
  }, 
  {
    "city": "Bor", 
    "lat": "44.1303", 
    "lng": "22.1036", 
    "country": "Serbia", 
    "iso2": "RS", 
    "admin_name": "Bor", 
    "capital": "admin", 
    "population": "34159", 
    "population_proper": "34159"
  }, 
  {
    "city": "Kovin", 
    "lat": "44.7500", 
    "lng": "20.9667", 
    "country": "Serbia", 
    "iso2": "RS", 
    "admin_name": "Kovin", 
    "capital": "admin", 
    "population": "33722", 
    "population_proper": "33722"
  }, 
  {
    "city": "Subotica", 
    "lat": "46.1003", 
    "lng": "19.6656", 
    "country": "Serbia", 
    "iso2": "RS", 
    "admin_name": "Subotica", 
    "capital": "admin", 
    "population": "29919", 
    "population_proper": "29919"
  }, 
  {
    "city": "Bačka Palanka", 
    "lat": "45.2500", 
    "lng": "19.4000", 
    "country": "Serbia", 
    "iso2": "RS", 
    "admin_name": "Bačka Palanka", 
    "capital": "admin", 
    "population": "29449", 
    "population_proper": "29449"
  }, 
  {
    "city": "Apatin", 
    "lat": "45.6667", 
    "lng": "18.9833", 
    "country": "Serbia", 
    "iso2": "RS", 
    "admin_name": "Apatin", 
    "capital": "admin", 
    "population": "28929", 
    "population_proper": "28929"
  }, 
  {
    "city": "Temerin", 
    "lat": "45.4167", 
    "lng": "19.8833", 
    "country": "Serbia", 
    "iso2": "RS", 
    "admin_name": "Temerin", 
    "capital": "admin", 
    "population": "28287", 
    "population_proper": "28287"
  }, 
  {
    "city": "Bajina Bašta", 
    "lat": "43.9731", 
    "lng": "19.5597", 
    "country": "Serbia", 
    "iso2": "RS", 
    "admin_name": "Bajina Bašta", 
    "capital": "admin", 
    "population": "26022", 
    "population_proper": "26022"
  }, 
  {
    "city": "Vrbas", 
    "lat": "45.5667", 
    "lng": "19.6500", 
    "country": "Serbia", 
    "iso2": "RS", 
    "admin_name": "Vrbas", 
    "capital": "admin", 
    "population": "24112", 
    "population_proper": "24112"
  }, 
  {
    "city": "Ćuprija", 
    "lat": "43.9231", 
    "lng": "21.3686", 
    "country": "Serbia", 
    "iso2": "RS", 
    "admin_name": "Ćuprija", 
    "capital": "admin", 
    "population": "20585", 
    "population_proper": "9609"
  }, 
  {
    "city": "Senta", 
    "lat": "45.9314", 
    "lng": "20.0900", 
    "country": "Serbia", 
    "iso2": "RS", 
    "admin_name": "Senta", 
    "capital": "admin", 
    "population": "20302", 
    "population_proper": "20302"
  }, 
  {
    "city": "Pećinci", 
    "lat": "44.9000", 
    "lng": "19.9667", 
    "country": "Serbia", 
    "iso2": "RS", 
    "admin_name": "Pećinci", 
    "capital": "admin", 
    "population": "19720", 
    "population_proper": "19720"
  }, 
  {
    "city": "Futog", 
    "lat": "45.2333", 
    "lng": "19.7167", 
    "country": "Serbia", 
    "iso2": "RS", 
    "admin_name": "", 
    "capital": "", 
    "population": "18641", 
    "population_proper": "18641"
  }, 
  {
    "city": "Veternik", 
    "lat": "45.2533", 
    "lng": "19.7608", 
    "country": "Serbia", 
    "iso2": "RS", 
    "admin_name": "", 
    "capital": "", 
    "population": "17454", 
    "population_proper": "17454"
  }, 
  {
    "city": "Trstenik", 
    "lat": "43.6186", 
    "lng": "20.9972", 
    "country": "Serbia", 
    "iso2": "RS", 
    "admin_name": "Trstenik", 
    "capital": "admin", 
    "population": "17180", 
    "population_proper": "17180"
  }, 
  {
    "city": "Nova Pazova", 
    "lat": "44.9500", 
    "lng": "20.2167", 
    "country": "Serbia", 
    "iso2": "RS", 
    "admin_name": "", 
    "capital": "", 
    "population": "17105", 
    "population_proper": "17105"
  }, 
  {
    "city": "Srbobran", 
    "lat": "45.5333", 
    "lng": "19.7833", 
    "country": "Serbia", 
    "iso2": "RS", 
    "admin_name": "Srbobran", 
    "capital": "admin", 
    "population": "16317", 
    "population_proper": "16317"
  }, 
  {
    "city": "Bačka Topola", 
    "lat": "45.8167", 
    "lng": "19.6333", 
    "country": "Serbia", 
    "iso2": "RS", 
    "admin_name": "Bačka Topola", 
    "capital": "admin", 
    "population": "16171", 
    "population_proper": "16171"
  }, 
  {
    "city": "Titel", 
    "lat": "45.2047", 
    "lng": "20.3000", 
    "country": "Serbia", 
    "iso2": "RS", 
    "admin_name": "Titel", 
    "capital": "admin", 
    "population": "15738", 
    "population_proper": "15738"
  }, 
  {
    "city": "Petrovaradin", 
    "lat": "45.2500", 
    "lng": "19.8667", 
    "country": "Serbia", 
    "iso2": "RS", 
    "admin_name": "Novi Sad", 
    "capital": "minor", 
    "population": "14810", 
    "population_proper": "14810"
  }, 
  {
    "city": "Niška Banja", 
    "lat": "43.2933", 
    "lng": "22.0061", 
    "country": "Serbia", 
    "iso2": "RS", 
    "admin_name": "Niš", 
    "capital": "minor", 
    "population": "14098", 
    "population_proper": "14098"
  }, 
  {
    "city": "Sjenica", 
    "lat": "43.2667", 
    "lng": "20.0000", 
    "country": "Serbia", 
    "iso2": "RS", 
    "admin_name": "Sjenica", 
    "capital": "admin", 
    "population": "14060", 
    "population_proper": "14060"
  }, 
  {
    "city": "Sečanj", 
    "lat": "45.3667", 
    "lng": "20.7725", 
    "country": "Serbia", 
    "iso2": "RS", 
    "admin_name": "Sečanj", 
    "capital": "admin", 
    "population": "13267", 
    "population_proper": "13267"
  }, 
  {
    "city": "Novi Bečej", 
    "lat": "45.6000", 
    "lng": "20.1167", 
    "country": "Serbia", 
    "iso2": "RS", 
    "admin_name": "Novi Bečej", 
    "capital": "admin", 
    "population": "13133", 
    "population_proper": "13133"
  }, 
  {
    "city": "Sremska Kamenica", 
    "lat": "45.2206", 
    "lng": "19.8392", 
    "country": "Serbia", 
    "iso2": "RS", 
    "admin_name": "", 
    "capital": "", 
    "population": "11967", 
    "population_proper": "11967"
  }, 
  {
    "city": "Kać", 
    "lat": "45.3000", 
    "lng": "19.9500", 
    "country": "Serbia", 
    "iso2": "RS", 
    "admin_name": "", 
    "capital": "", 
    "population": "11740", 
    "population_proper": "11740"
  }, 
  {
    "city": "Ugrinovci", 
    "lat": "44.8783", 
    "lng": "20.1869", 
    "country": "Serbia", 
    "iso2": "RS", 
    "admin_name": "Beograd", 
    "capital": "", 
    "population": "10807", 
    "population_proper": "10807"
  }, 
  {
    "city": "Bela Crkva", 
    "lat": "44.8975", 
    "lng": "21.4169", 
    "country": "Serbia", 
    "iso2": "RS", 
    "admin_name": "Bela Crkva", 
    "capital": "admin", 
    "population": "10675", 
    "population_proper": "10675"
  }, 
  {
    "city": "Laćarak", 
    "lat": "45.0000", 
    "lng": "19.5667", 
    "country": "Serbia", 
    "iso2": "RS", 
    "admin_name": "", 
    "capital": "", 
    "population": "10638", 
    "population_proper": "10638"
  }, 
  {
    "city": "Ada", 
    "lat": "45.8000", 
    "lng": "20.1333", 
    "country": "Serbia", 
    "iso2": "RS", 
    "admin_name": "Ada", 
    "capital": "admin", 
    "population": "10547", 
    "population_proper": "10547"
  }, 
  {
    "city": "Vrnjačka Banja", 
    "lat": "43.6236", 
    "lng": "20.8936", 
    "country": "Serbia", 
    "iso2": "RS", 
    "admin_name": "Vrnjačka Banja", 
    "capital": "admin", 
    "population": "10065", 
    "population_proper": "10065"
  }, 
  {
    "city": "Kanjiža", 
    "lat": "46.0667", 
    "lng": "20.0500", 
    "country": "Serbia", 
    "iso2": "RS", 
    "admin_name": "Kanjiža", 
    "capital": "admin", 
    "population": "9871", 
    "population_proper": "9871"
  }, 
  {
    "city": "Vranjska Banja", 
    "lat": "42.5556", 
    "lng": "21.9917", 
    "country": "Serbia", 
    "iso2": "RS", 
    "admin_name": "", 
    "capital": "", 
    "population": "9580", 
    "population_proper": "9580"
  }, 
  {
    "city": "Novi Banovci", 
    "lat": "44.9500", 
    "lng": "20.2833", 
    "country": "Serbia", 
    "iso2": "RS", 
    "admin_name": "", 
    "capital": "", 
    "population": "9443", 
    "population_proper": "9443"
  }, 
  {
    "city": "Žabalj", 
    "lat": "45.3667", 
    "lng": "20.0667", 
    "country": "Serbia", 
    "iso2": "RS", 
    "admin_name": "Žabalj", 
    "capital": "admin", 
    "population": "9161", 
    "population_proper": "9161"
  }, 
  {
    "city": "Odžaci", 
    "lat": "45.5167", 
    "lng": "19.2667", 
    "country": "Serbia", 
    "iso2": "RS", 
    "admin_name": "Odžaci", 
    "capital": "admin", 
    "population": "9021", 
    "population_proper": "9021"
  }, 
  {
    "city": "Crvenka", 
    "lat": "45.6583", 
    "lng": "19.4556", 
    "country": "Serbia", 
    "iso2": "RS", 
    "admin_name": "", 
    "capital": "", 
    "population": "9001", 
    "population_proper": "9001"
  }, 
  {
    "city": "Sremski Karlovci", 
    "lat": "45.2000", 
    "lng": "19.9333", 
    "country": "Serbia", 
    "iso2": "RS", 
    "admin_name": "Sremski Karlovci", 
    "capital": "admin", 
    "population": "8750", 
    "population_proper": "8750"
  }, 
  {
    "city": "Dobanovci", 
    "lat": "44.8333", 
    "lng": "20.2333", 
    "country": "Serbia", 
    "iso2": "RS", 
    "admin_name": "Beograd", 
    "capital": "", 
    "population": "8503", 
    "population_proper": "8503"
  }, 
  {
    "city": "Beočin", 
    "lat": "45.2000", 
    "lng": "19.7333", 
    "country": "Serbia", 
    "iso2": "RS", 
    "admin_name": "Beočin", 
    "capital": "admin", 
    "population": "8058", 
    "population_proper": "8058"
  }, 
  {
    "city": "Sokobanja", 
    "lat": "43.6500", 
    "lng": "21.8667", 
    "country": "Serbia", 
    "iso2": "RS", 
    "admin_name": "Sokobanja", 
    "capital": "admin", 
    "population": "7982", 
    "population_proper": "7982"
  }, 
  {
    "city": "Sivac", 
    "lat": "45.7000", 
    "lng": "19.3833", 
    "country": "Serbia", 
    "iso2": "RS", 
    "admin_name": "", 
    "capital": "", 
    "population": "7895", 
    "population_proper": "7895"
  }, 
  {
    "city": "Palić", 
    "lat": "46.1031", 
    "lng": "19.7586", 
    "country": "Serbia", 
    "iso2": "RS", 
    "admin_name": "", 
    "capital": "", 
    "population": "7771", 
    "population_proper": "7771"
  }, 
  {
    "city": "Starčevo", 
    "lat": "44.8072", 
    "lng": "20.7047", 
    "country": "Serbia", 
    "iso2": "RS", 
    "admin_name": "", 
    "capital": "", 
    "population": "7473", 
    "population_proper": "7473"
  }, 
  {
    "city": "Lapovo", 
    "lat": "44.1833", 
    "lng": "21.1000", 
    "country": "Serbia", 
    "iso2": "RS", 
    "admin_name": "Lapovo", 
    "capital": "admin", 
    "population": "7143", 
    "population_proper": "7143"
  }, 
  {
    "city": "Kačarevo", 
    "lat": "44.9597", 
    "lng": "20.6894", 
    "country": "Serbia", 
    "iso2": "RS", 
    "admin_name": "", 
    "capital": "", 
    "population": "7100", 
    "population_proper": "7100"
  }, 
  {
    "city": "Banatsko Novo Selo", 
    "lat": "44.9897", 
    "lng": "20.7836", 
    "country": "Serbia", 
    "iso2": "RS", 
    "admin_name": "", 
    "capital": "", 
    "population": "7089", 
    "population_proper": "7089"
  }, 
  {
    "city": "Novi Kneževac", 
    "lat": "46.0500", 
    "lng": "20.1000", 
    "country": "Serbia", 
    "iso2": "RS", 
    "admin_name": "Novi Kneževac", 
    "capital": "admin", 
    "population": "6960", 
    "population_proper": "6960"
  }, 
  {
    "city": "Kovačica", 
    "lat": "45.1117", 
    "lng": "20.6214", 
    "country": "Serbia", 
    "iso2": "RS", 
    "admin_name": "Kovačica", 
    "capital": "admin", 
    "population": "6764", 
    "population_proper": "6764"
  }, 
  {
    "city": "Novo Miloševo", 
    "lat": "45.7197", 
    "lng": "20.3019", 
    "country": "Serbia", 
    "iso2": "RS", 
    "admin_name": "", 
    "capital": "", 
    "population": "6763", 
    "population_proper": "6763"
  }, 
  {
    "city": "Melenci", 
    "lat": "45.3764", 
    "lng": "20.3008", 
    "country": "Serbia", 
    "iso2": "RS", 
    "admin_name": "", 
    "capital": "", 
    "population": "6737", 
    "population_proper": "6737"
  }, 
  {
    "city": "Rumenka", 
    "lat": "45.3000", 
    "lng": "19.7500", 
    "country": "Serbia", 
    "iso2": "RS", 
    "admin_name": "", 
    "capital": "", 
    "population": "6495", 
    "population_proper": "6495"
  }, 
  {
    "city": "Bogatić", 
    "lat": "44.8333", 
    "lng": "19.4833", 
    "country": "Serbia", 
    "iso2": "RS", 
    "admin_name": "Bogatić", 
    "capital": "admin", 
    "population": "6488", 
    "population_proper": "6488"
  }, 
  {
    "city": "Jakovo", 
    "lat": "44.7500", 
    "lng": "20.2667", 
    "country": "Serbia", 
    "iso2": "RS", 
    "admin_name": "Beograd", 
    "capital": "", 
    "population": "6393", 
    "population_proper": "6393"
  }, 
  {
    "city": "Zvečka", 
    "lat": "44.6389", 
    "lng": "20.1647", 
    "country": "Serbia", 
    "iso2": "RS", 
    "admin_name": "Beograd", 
    "capital": "", 
    "population": "6350", 
    "population_proper": "6350"
  }, 
  {
    "city": "Banja Koviljača", 
    "lat": "44.5167", 
    "lng": "19.1500", 
    "country": "Serbia", 
    "iso2": "RS", 
    "admin_name": "", 
    "capital": "", 
    "population": "6340", 
    "population_proper": "6340"
  }, 
  {
    "city": "Horgoš", 
    "lat": "46.1533", 
    "lng": "19.9703", 
    "country": "Serbia", 
    "iso2": "RS", 
    "admin_name": "", 
    "capital": "", 
    "population": "6325", 
    "population_proper": "6325"
  }, 
  {
    "city": "Beška", 
    "lat": "45.1333", 
    "lng": "20.0667", 
    "country": "Serbia", 
    "iso2": "RS", 
    "admin_name": "", 
    "capital": "", 
    "population": "6239", 
    "population_proper": "6239"
  }, 
  {
    "city": "Jabuka", 
    "lat": "44.9431", 
    "lng": "20.5931", 
    "country": "Serbia", 
    "iso2": "RS", 
    "admin_name": "", 
    "capital": "", 
    "population": "6181", 
    "population_proper": "6181"
  }, 
  {
    "city": "Bački Petrovac", 
    "lat": "45.3606", 
    "lng": "19.5917", 
    "country": "Serbia", 
    "iso2": "RS", 
    "admin_name": "Bački Petrovac", 
    "capital": "admin", 
    "population": "6155", 
    "population_proper": "6155"
  }, 
  {
    "city": "Bavanište", 
    "lat": "44.8181", 
    "lng": "20.8722", 
    "country": "Serbia", 
    "iso2": "RS", 
    "admin_name": "", 
    "capital": "", 
    "population": "6106", 
    "population_proper": "6106"
  }, 
  {
    "city": "Bač", 
    "lat": "45.3833", 
    "lng": "19.2333", 
    "country": "Serbia", 
    "iso2": "RS", 
    "admin_name": "Bač", 
    "capital": "admin", 
    "population": "6087", 
    "population_proper": "6087"
  }, 
  {
    "city": "Mol", 
    "lat": "45.7586", 
    "lng": "20.1253", 
    "country": "Serbia", 
    "iso2": "RS", 
    "admin_name": "", 
    "capital": "", 
    "population": "6009", 
    "population_proper": "6009"
  }, 
  {
    "city": "Stari Banovci", 
    "lat": "44.9833", 
    "lng": "20.2833", 
    "country": "Serbia", 
    "iso2": "RS", 
    "admin_name": "", 
    "capital": "", 
    "population": "5954", 
    "population_proper": "5954"
  }, 
  {
    "city": "Banatski Karlovac", 
    "lat": "45.0500", 
    "lng": "21.0167", 
    "country": "Serbia", 
    "iso2": "RS", 
    "admin_name": "", 
    "capital": "", 
    "population": "5820", 
    "population_proper": "5820"
  }, 
  {
    "city": "Padina", 
    "lat": "45.1200", 
    "lng": "20.7200", 
    "country": "Serbia", 
    "iso2": "RS", 
    "admin_name": "", 
    "capital": "", 
    "population": "5760", 
    "population_proper": "5760"
  }, 
  {
    "city": "Bački Jarak", 
    "lat": "45.3667", 
    "lng": "19.8667", 
    "country": "Serbia", 
    "iso2": "RS", 
    "admin_name": "", 
    "capital": "", 
    "population": "5687", 
    "population_proper": "5687"
  }, 
  {
    "city": "Mali Iđoš", 
    "lat": "45.7069", 
    "lng": "19.6644", 
    "country": "Serbia", 
    "iso2": "RS", 
    "admin_name": "Mali Iđoš", 
    "capital": "admin", 
    "population": "5464", 
    "population_proper": "5464"
  }, 
  {
    "city": "Bačko Gradište", 
    "lat": "45.5333", 
    "lng": "20.0333", 
    "country": "Serbia", 
    "iso2": "RS", 
    "admin_name": "", 
    "capital": "", 
    "population": "5445", 
    "population_proper": "5445"
  }, 
  {
    "city": "Debeljača", 
    "lat": "45.0711", 
    "lng": "20.6000", 
    "country": "Serbia", 
    "iso2": "RS", 
    "admin_name": "", 
    "capital": "", 
    "population": "5325", 
    "population_proper": "5325"
  }, 
  {
    "city": "Mokrin", 
    "lat": "45.9347", 
    "lng": "20.4044", 
    "country": "Serbia", 
    "iso2": "RS", 
    "admin_name": "", 
    "capital": "", 
    "population": "5270", 
    "population_proper": "5270"
  }, 
  {
    "city": "Stara Moravica", 
    "lat": "45.8689", 
    "lng": "19.4661", 
    "country": "Serbia", 
    "iso2": "RS", 
    "admin_name": "", 
    "capital": "", 
    "population": "5051", 
    "population_proper": "5051"
  }, 
  {
    "city": "Irig", 
    "lat": "45.1000", 
    "lng": "19.8500", 
    "country": "Serbia", 
    "iso2": "RS", 
    "admin_name": "Irig", 
    "capital": "admin", 
    "population": "4848", 
    "population_proper": "4848"
  }, 
  {
    "city": "Stanišić", 
    "lat": "45.9333", 
    "lng": "19.1667", 
    "country": "Serbia", 
    "iso2": "RS", 
    "admin_name": "", 
    "capital": "", 
    "population": "4808", 
    "population_proper": "4808"
  }, 
  {
    "city": "Golubinci", 
    "lat": "44.9833", 
    "lng": "20.0667", 
    "country": "Serbia", 
    "iso2": "RS", 
    "admin_name": "", 
    "capital": "", 
    "population": "4721", 
    "population_proper": "4721"
  }, 
  {
    "city": "Čoka", 
    "lat": "45.9333", 
    "lng": "20.1500", 
    "country": "Serbia", 
    "iso2": "RS", 
    "admin_name": "Čoka", 
    "capital": "admin", 
    "population": "4707", 
    "population_proper": "4707"
  }, 
  {
    "city": "Elemir", 
    "lat": "45.4389", 
    "lng": "20.2922", 
    "country": "Serbia", 
    "iso2": "RS", 
    "admin_name": "", 
    "capital": "", 
    "population": "4690", 
    "population_proper": "4690"
  }, 
  {
    "city": "Opovo", 
    "lat": "45.0519", 
    "lng": "20.4303", 
    "country": "Serbia", 
    "iso2": "RS", 
    "admin_name": "Opovo", 
    "capital": "admin", 
    "population": "4546", 
    "population_proper": "4546"
  }, 
  {
    "city": "Ečka", 
    "lat": "45.3178", 
    "lng": "20.4389", 
    "country": "Serbia", 
    "iso2": "RS", 
    "admin_name": "", 
    "capital": "", 
    "population": "4513", 
    "population_proper": "4513"
  }, 
  {
    "city": "Markovac", 
    "lat": "44.2333", 
    "lng": "21.1000", 
    "country": "Serbia", 
    "iso2": "RS", 
    "admin_name": "", 
    "capital": "", 
    "population": "4462", 
    "population_proper": "2915"
  }, 
  {
    "city": "Sonta", 
    "lat": "45.6000", 
    "lng": "19.1000", 
    "country": "Serbia", 
    "iso2": "RS", 
    "admin_name": "", 
    "capital": "", 
    "population": "4238", 
    "population_proper": "4238"
  }, 
  {
    "city": "Ostružnica", 
    "lat": "44.7236", 
    "lng": "20.3181", 
    "country": "Serbia", 
    "iso2": "RS", 
    "admin_name": "Beograd", 
    "capital": "", 
    "population": "4218", 
    "population_proper": "4218"
  }, 
  {
    "city": "Vladimirovac", 
    "lat": "45.0472", 
    "lng": "20.8822", 
    "country": "Serbia", 
    "iso2": "RS", 
    "admin_name": "", 
    "capital": "", 
    "population": "4111", 
    "population_proper": "4111"
  }, 
  {
    "city": "Feketić", 
    "lat": "45.6667", 
    "lng": "19.7000", 
    "country": "Serbia", 
    "iso2": "RS", 
    "admin_name": "", 
    "capital": "", 
    "population": "3980", 
    "population_proper": "3980"
  }, 
  {
    "city": "Bukovac", 
    "lat": "45.1911", 
    "lng": "19.8947", 
    "country": "Serbia", 
    "iso2": "RS", 
    "admin_name": "", 
    "capital": "", 
    "population": "3936", 
    "population_proper": "3936"
  }, 
  {
    "city": "Bačko Dobro Polje", 
    "lat": "45.5000", 
    "lng": "19.6833", 
    "country": "Serbia", 
    "iso2": "RS", 
    "admin_name": "", 
    "capital": "", 
    "population": "3929", 
    "population_proper": "3929"
  }, 
  {
    "city": "Mačvanska Mitrovica", 
    "lat": "44.9656", 
    "lng": "19.5981", 
    "country": "Serbia", 
    "iso2": "RS", 
    "admin_name": "", 
    "capital": "", 
    "population": "3873", 
    "population_proper": "3873"
  }, 
  {
    "city": "Plandište", 
    "lat": "45.2269", 
    "lng": "21.1217", 
    "country": "Serbia", 
    "iso2": "RS", 
    "admin_name": "Plandište", 
    "capital": "admin", 
    "population": "3832", 
    "population_proper": "3832"
  }, 
  {
    "city": "Srpska Crnja", 
    "lat": "45.7206", 
    "lng": "20.6864", 
    "country": "Serbia", 
    "iso2": "RS", 
    "admin_name": "", 
    "capital": "", 
    "population": "3753", 
    "population_proper": "3753"
  }, 
  {
    "city": "Kamenica", 
    "lat": "43.3758", 
    "lng": "21.9419", 
    "country": "Serbia", 
    "iso2": "RS", 
    "admin_name": "", 
    "capital": "", 
    "population": "3700", 
    "population_proper": "3700"
  }, 
  {
    "city": "Budisava", 
    "lat": "45.2833", 
    "lng": "20.0000", 
    "country": "Serbia", 
    "iso2": "RS", 
    "admin_name": "", 
    "capital": "", 
    "population": "3656", 
    "population_proper": "3656"
  }, 
  {
    "city": "Bašaid", 
    "lat": "45.6381", 
    "lng": "20.4086", 
    "country": "Serbia", 
    "iso2": "RS", 
    "admin_name": "", 
    "capital": "", 
    "population": "3503", 
    "population_proper": "3123"
  }, 
  {
    "city": "Aradac", 
    "lat": "45.3764", 
    "lng": "20.3008", 
    "country": "Serbia", 
    "iso2": "RS", 
    "admin_name": "", 
    "capital": "", 
    "population": "3461", 
    "population_proper": "3461"
  }, 
  {
    "city": "Alibunar", 
    "lat": "45.0806", 
    "lng": "20.9656", 
    "country": "Serbia", 
    "iso2": "RS", 
    "admin_name": "Alibunar", 
    "capital": "admin", 
    "population": "3431", 
    "population_proper": "3431"
  }, 
  {
    "city": "Perlez", 
    "lat": "45.2047", 
    "lng": "20.3756", 
    "country": "Serbia", 
    "iso2": "RS", 
    "admin_name": "", 
    "capital": "", 
    "population": "3383", 
    "population_proper": "3383"
  }, 
  {
    "city": "Šimanovci", 
    "lat": "44.8667", 
    "lng": "20.0833", 
    "country": "Serbia", 
    "iso2": "RS", 
    "admin_name": "", 
    "capital": "", 
    "population": "3358", 
    "population_proper": "3358"
  }, 
  {
    "city": "Gaj", 
    "lat": "44.7878", 
    "lng": "21.0581", 
    "country": "Serbia", 
    "iso2": "RS", 
    "admin_name": "", 
    "capital": "", 
    "population": "3302", 
    "population_proper": "3302"
  }, 
  {
    "city": "Kumane", 
    "lat": "45.5367", 
    "lng": "20.2236", 
    "country": "Serbia", 
    "iso2": "RS", 
    "admin_name": "", 
    "capital": "", 
    "population": "3284", 
    "population_proper": "3284"
  }, 
  {
    "city": "Banatski Brestovac", 
    "lat": "44.7269", 
    "lng": "20.8072", 
    "country": "Serbia", 
    "iso2": "RS", 
    "admin_name": "", 
    "capital": "", 
    "population": "3251", 
    "population_proper": "3251"
  }, 
  {
    "city": "Klenak", 
    "lat": "44.7881", 
    "lng": "19.7044", 
    "country": "Serbia", 
    "iso2": "RS", 
    "admin_name": "", 
    "capital": "", 
    "population": "3246", 
    "population_proper": "3246"
  }, 
  {
    "city": "Putinci", 
    "lat": "45.0000", 
    "lng": "19.9667", 
    "country": "Serbia", 
    "iso2": "RS", 
    "admin_name": "", 
    "capital": "", 
    "population": "3244", 
    "population_proper": "3244"
  }, 
  {
    "city": "Vreoci", 
    "lat": "44.4422", 
    "lng": "20.2817", 
    "country": "Serbia", 
    "iso2": "RS", 
    "admin_name": "Beograd", 
    "capital": "", 
    "population": "3210", 
    "population_proper": "3210"
  }, 
  {
    "city": "Obrovac", 
    "lat": "45.3167", 
    "lng": "19.3500", 
    "country": "Serbia", 
    "iso2": "RS", 
    "admin_name": "", 
    "capital": "", 
    "population": "3177", 
    "population_proper": "3177"
  }, 
  {
    "city": "Mramorak", 
    "lat": "44.8753", 
    "lng": "20.9686", 
    "country": "Serbia", 
    "iso2": "RS", 
    "admin_name": "", 
    "capital": "", 
    "population": "3145", 
    "population_proper": "3145"
  }, 
  {
    "city": "Čenta", 
    "lat": "45.1050", 
    "lng": "20.3861", 
    "country": "Serbia", 
    "iso2": "RS", 
    "admin_name": "", 
    "capital": "", 
    "population": "3119", 
    "population_proper": "3119"
  }, 
  {
    "city": "Srpski Miletić", 
    "lat": "45.5667", 
    "lng": "19.2000", 
    "country": "Serbia", 
    "iso2": "RS", 
    "admin_name": "", 
    "capital": "", 
    "population": "3038", 
    "population_proper": "3038"
  }, 
  {
    "city": "Hrtkovci", 
    "lat": "44.8833", 
    "lng": "19.7667", 
    "country": "Serbia", 
    "iso2": "RS", 
    "admin_name": "", 
    "capital": "", 
    "population": "3036", 
    "population_proper": "3036"
  }, 
  {
    "city": "Banatsko Veliko Selo", 
    "lat": "45.8194", 
    "lng": "20.6058", 
    "country": "Serbia", 
    "iso2": "RS", 
    "admin_name": "", 
    "capital": "", 
    "population": "3034", 
    "population_proper": "3034"
  }, 
  {
    "city": "Glogonj", 
    "lat": "44.9833", 
    "lng": "20.5333", 
    "country": "Serbia", 
    "iso2": "RS", 
    "admin_name": "", 
    "capital": "", 
    "population": "3012", 
    "population_proper": "3012"
  }, 
  {
    "city": "Sirig", 
    "lat": "45.4333", 
    "lng": "19.8167", 
    "country": "Serbia", 
    "iso2": "RS", 
    "admin_name": "", 
    "capital": "", 
    "population": "3010", 
    "population_proper": "3010"
  }, 
  {
    "city": "Jaša Tomić", 
    "lat": "45.4414", 
    "lng": "20.8531", 
    "country": "Serbia", 
    "iso2": "RS", 
    "admin_name": "", 
    "capital": "", 
    "population": "2982", 
    "population_proper": "2982"
  }, 
  {
    "city": "Belegiš", 
    "lat": "45.0167", 
    "lng": "20.3333", 
    "country": "Serbia", 
    "iso2": "RS", 
    "admin_name": "", 
    "capital": "", 
    "population": "2973", 
    "population_proper": "2973"
  }, 
  {
    "city": "Klek", 
    "lat": "45.4197", 
    "lng": "20.4747", 
    "country": "Serbia", 
    "iso2": "RS", 
    "admin_name": "", 
    "capital": "", 
    "population": "2959", 
    "population_proper": "2959"
  }, 
  {
    "city": "Mataruška Banja", 
    "lat": "43.6917", 
    "lng": "20.6111", 
    "country": "Serbia", 
    "iso2": "RS", 
    "admin_name": "", 
    "capital": "", 
    "population": "2950", 
    "population_proper": "2950"
  }, 
  {
    "city": "Deliblato", 
    "lat": "44.8375", 
    "lng": "21.0392", 
    "country": "Serbia", 
    "iso2": "RS", 
    "admin_name": "", 
    "capital": "", 
    "population": "2939", 
    "population_proper": "2939"
  }, 
  {
    "city": "Žitište", 
    "lat": "45.4833", 
    "lng": "20.5500", 
    "country": "Serbia", 
    "iso2": "RS", 
    "admin_name": "Žitište", 
    "capital": "admin", 
    "population": "2903", 
    "population_proper": "2903"
  }, 
  {
    "city": "Padej", 
    "lat": "45.8239", 
    "lng": "20.1597", 
    "country": "Serbia", 
    "iso2": "RS", 
    "admin_name": "", 
    "capital": "", 
    "population": "2882", 
    "population_proper": "2882"
  }, 
  {
    "city": "Krčedin", 
    "lat": "45.1333", 
    "lng": "20.1333", 
    "country": "Serbia", 
    "iso2": "RS", 
    "admin_name": "", 
    "capital": "", 
    "population": "2878", 
    "population_proper": "2878"
  }, 
  {
    "city": "Lazarevo", 
    "lat": "45.3864", 
    "lng": "20.5367", 
    "country": "Serbia", 
    "iso2": "RS", 
    "admin_name": "", 
    "capital": "", 
    "population": "2877", 
    "population_proper": "2877"
  }, 
  {
    "city": "Begejci", 
    "lat": "45.5053", 
    "lng": "20.6039", 
    "country": "Serbia", 
    "iso2": "RS", 
    "admin_name": "", 
    "capital": "", 
    "population": "2850", 
    "population_proper": "2850"
  }, 
  {
    "city": "Novi Žednik", 
    "lat": "45.9333", 
    "lng": "19.6667", 
    "country": "Serbia", 
    "iso2": "RS", 
    "admin_name": "", 
    "capital": "", 
    "population": "2848", 
    "population_proper": "2848"
  }, 
  {
    "city": "Ostojićevo", 
    "lat": "45.8881", 
    "lng": "20.1667", 
    "country": "Serbia", 
    "iso2": "RS", 
    "admin_name": "", 
    "capital": "", 
    "population": "2844", 
    "population_proper": "2844"
  }, 
  {
    "city": "Rusko Selo", 
    "lat": "45.7578", 
    "lng": "20.5697", 
    "country": "Serbia", 
    "iso2": "RS", 
    "admin_name": "", 
    "capital": "", 
    "population": "2811", 
    "population_proper": "2811"
  }, 
  {
    "city": "Ravni Topolovac", 
    "lat": "45.4553", 
    "lng": "20.5681", 
    "country": "Serbia", 
    "iso2": "RS", 
    "admin_name": "", 
    "capital": "", 
    "population": "2762", 
    "population_proper": "2762"
  }, 
  {
    "city": "Platičevo", 
    "lat": "44.8167", 
    "lng": "19.8000", 
    "country": "Serbia", 
    "iso2": "RS", 
    "admin_name": "", 
    "capital": "", 
    "population": "2760", 
    "population_proper": "2760"
  }, 
  {
    "city": "Svetozar Miletić", 
    "lat": "45.8503", 
    "lng": "19.2067", 
    "country": "Serbia", 
    "iso2": "RS", 
    "admin_name": "", 
    "capital": "", 
    "population": "2746", 
    "population_proper": "2746"
  }, 
  {
    "city": "Maglić", 
    "lat": "45.3622", 
    "lng": "19.5317", 
    "country": "Serbia", 
    "iso2": "RS", 
    "admin_name": "", 
    "capital": "", 
    "population": "2695", 
    "population_proper": "2695"
  }, 
  {
    "city": "Aleksandrovo", 
    "lat": "45.6356", 
    "lng": "20.5889", 
    "country": "Serbia", 
    "iso2": "RS", 
    "admin_name": "", 
    "capital": "", 
    "population": "2665", 
    "population_proper": "2665"
  }, 
  {
    "city": "Riđica", 
    "lat": "45.9833", 
    "lng": "19.1000", 
    "country": "Serbia", 
    "iso2": "RS", 
    "admin_name": "", 
    "capital": "", 
    "population": "2590", 
    "population_proper": "2590"
  }, 
  {
    "city": "Skorenovac", 
    "lat": "44.7589", 
    "lng": "20.9028", 
    "country": "Serbia", 
    "iso2": "RS", 
    "admin_name": "", 
    "capital": "", 
    "population": "2574", 
    "population_proper": "2574"
  }, 
  {
    "city": "Mošorin", 
    "lat": "45.3000", 
    "lng": "20.1667", 
    "country": "Serbia", 
    "iso2": "RS", 
    "admin_name": "", 
    "capital": "", 
    "population": "2569", 
    "population_proper": "2569"
  }, 
  {
    "city": "Bajša", 
    "lat": "45.7833", 
    "lng": "19.5833", 
    "country": "Serbia", 
    "iso2": "RS", 
    "admin_name": "", 
    "capital": "", 
    "population": "2568", 
    "population_proper": "2568"
  }, 
  {
    "city": "Sefkerin", 
    "lat": "45.0028", 
    "lng": "20.4764", 
    "country": "Serbia", 
    "iso2": "RS", 
    "admin_name": "", 
    "capital": "", 
    "population": "2522", 
    "population_proper": "2522"
  }, 
  {
    "city": "Banatsko Karađorđevo", 
    "lat": "45.5667", 
    "lng": "20.5578", 
    "country": "Serbia", 
    "iso2": "RS", 
    "admin_name": "", 
    "capital": "", 
    "population": "2508", 
    "population_proper": "2508"
  }, 
  {
    "city": "Donji Milanovac", 
    "lat": "44.4664", 
    "lng": "22.1517", 
    "country": "Serbia", 
    "iso2": "RS", 
    "admin_name": "", 
    "capital": "", 
    "population": "2410", 
    "population_proper": "2410"
  }, 
  {
    "city": "Nova Crnja", 
    "lat": "45.6667", 
    "lng": "20.6000", 
    "country": "Serbia", 
    "iso2": "RS", 
    "admin_name": "Nova Crnja", 
    "capital": "admin", 
    "population": "1491", 
    "population_proper": "1491"
  }, 
  {
    "city": "Crna Trava", 
    "lat": "42.8101", 
    "lng": "22.2990", 
    "country": "Serbia", 
    "iso2": "RS", 
    "admin_name": "Crna Trava", 
    "capital": "admin", 
    "population": "434", 
    "population_proper": "434"
  }, 
  {
    "city": "Tutin", 
    "lat": "42.9875", 
    "lng": "20.3256", 
    "country": "Serbia", 
    "iso2": "RS", 
    "admin_name": "Tutin", 
    "capital": "admin", 
    "population": "", 
    "population_proper": ""
  }, 
  {
    "city": "Aranđelovac", 
    "lat": "44.3042", 
    "lng": "20.5561", 
    "country": "Serbia", 
    "iso2": "RS", 
    "admin_name": "Aranđelovac", 
    "capital": "admin", 
    "population": "", 
    "population_proper": ""
  }, 
  {
    "city": "Ivanjica", 
    "lat": "43.5811", 
    "lng": "20.2297", 
    "country": "Serbia", 
    "iso2": "RS", 
    "admin_name": "Ivanjica", 
    "capital": "admin", 
    "population": "", 
    "population_proper": ""
  }, 
  {
    "city": "Obrenovac", 
    "lat": "44.6539", 
    "lng": "20.2000", 
    "country": "Serbia", 
    "iso2": "RS", 
    "admin_name": "Beograd", 
    "capital": "minor", 
    "population": "", 
    "population_proper": ""
  }, 
  {
    "city": "Priboj", 
    "lat": "43.5836", 
    "lng": "19.5258", 
    "country": "Serbia", 
    "iso2": "RS", 
    "admin_name": "Priboj", 
    "capital": "admin", 
    "population": "", 
    "population_proper": ""
  }, 
  {
    "city": "Jagodina", 
    "lat": "43.9750", 
    "lng": "21.2564", 
    "country": "Serbia", 
    "iso2": "RS", 
    "admin_name": "Jagodina", 
    "capital": "admin", 
    "population": "", 
    "population_proper": ""
  }, 
  {
    "city": "Šabac", 
    "lat": "44.7558", 
    "lng": "19.6939", 
    "country": "Serbia", 
    "iso2": "RS", 
    "admin_name": "Šabac", 
    "capital": "admin", 
    "population": "", 
    "population_proper": ""
  }, 
  {
    "city": "Smederevo", 
    "lat": "44.6633", 
    "lng": "20.9289", 
    "country": "Serbia", 
    "iso2": "RS", 
    "admin_name": "Smederevo", 
    "capital": "admin", 
    "population": "", 
    "population_proper": ""
  }, 
  {
    "city": "Arilje", 
    "lat": "43.7531", 
    "lng": "20.0956", 
    "country": "Serbia", 
    "iso2": "RS", 
    "admin_name": "Arilje", 
    "capital": "admin", 
    "population": "", 
    "population_proper": ""
  }, 
  {
    "city": "Vladičin Han", 
    "lat": "42.7000", 
    "lng": "22.0667", 
    "country": "Serbia", 
    "iso2": "RS", 
    "admin_name": "Vladičin Han", 
    "capital": "admin", 
    "population": "", 
    "population_proper": ""
  }, 
  {
    "city": "Nova Varoš", 
    "lat": "43.4667", 
    "lng": "19.8203", 
    "country": "Serbia", 
    "iso2": "RS", 
    "admin_name": "Nova Varoš", 
    "capital": "admin", 
    "population": "", 
    "population_proper": ""
  }, 
  {
    "city": "Kuršumlija", 
    "lat": "43.1408", 
    "lng": "21.2678", 
    "country": "Serbia", 
    "iso2": "RS", 
    "admin_name": "Kuršumlija", 
    "capital": "admin", 
    "population": "", 
    "population_proper": ""
  }, 
  {
    "city": "Aleksandrovac", 
    "lat": "43.4553", 
    "lng": "21.0514", 
    "country": "Serbia", 
    "iso2": "RS", 
    "admin_name": "Aleksandrovac", 
    "capital": "admin", 
    "population": "", 
    "population_proper": ""
  }, 
  {
    "city": "Gornji Milanovac", 
    "lat": "44.0212", 
    "lng": "20.4560", 
    "country": "Serbia", 
    "iso2": "RS", 
    "admin_name": "Gornji Milanovac", 
    "capital": "admin", 
    "population": "", 
    "population_proper": ""
  }, 
  {
    "city": "Svrljig", 
    "lat": "43.4167", 
    "lng": "22.1167", 
    "country": "Serbia", 
    "iso2": "RS", 
    "admin_name": "Svrljig", 
    "capital": "admin", 
    "population": "", 
    "population_proper": ""
  }, 
  {
    "city": "Raška", 
    "lat": "43.2856", 
    "lng": "20.6092", 
    "country": "Serbia", 
    "iso2": "RS", 
    "admin_name": "Raška", 
    "capital": "admin", 
    "population": "", 
    "population_proper": ""
  }, 
  {
    "city": "Pirot", 
    "lat": "43.1519", 
    "lng": "22.5850", 
    "country": "Serbia", 
    "iso2": "RS", 
    "admin_name": "Pirot", 
    "capital": "admin", 
    "population": "", 
    "population_proper": ""
  }, 
  {
    "city": "Prokuplje", 
    "lat": "43.2339", 
    "lng": "21.5861", 
    "country": "Serbia", 
    "iso2": "RS", 
    "admin_name": "Prokuplje", 
    "capital": "admin", 
    "population": "", 
    "population_proper": ""
  }, 
  {
    "city": "Brus", 
    "lat": "43.3836", 
    "lng": "21.0336", 
    "country": "Serbia", 
    "iso2": "RS", 
    "admin_name": "Brus", 
    "capital": "admin", 
    "population": "", 
    "population_proper": ""
  }, 
  {
    "city": "Surdulica", 
    "lat": "42.6950", 
    "lng": "22.1672", 
    "country": "Serbia", 
    "iso2": "RS", 
    "admin_name": "Surdulica", 
    "capital": "admin", 
    "population": "", 
    "population_proper": ""
  }, 
  {
    "city": "Ub", 
    "lat": "44.4500", 
    "lng": "20.0667", 
    "country": "Serbia", 
    "iso2": "RS", 
    "admin_name": "Ub", 
    "capital": "admin", 
    "population": "", 
    "population_proper": ""
  }, 
  {
    "city": "Lučani", 
    "lat": "43.8667", 
    "lng": "20.1333", 
    "country": "Serbia", 
    "iso2": "RS", 
    "admin_name": "Lučani", 
    "capital": "admin", 
    "population": "", 
    "population_proper": ""
  }, 
  {
    "city": "Požega", 
    "lat": "43.8459", 
    "lng": "20.0368", 
    "country": "Serbia", 
    "iso2": "RS", 
    "admin_name": "Požega", 
    "capital": "admin", 
    "population": "", 
    "population_proper": ""
  }, 
  {
    "city": "Smederevska Palanka", 
    "lat": "44.3655", 
    "lng": "20.9587", 
    "country": "Serbia", 
    "iso2": "RS", 
    "admin_name": "Smederevska Palanka", 
    "capital": "admin", 
    "population": "", 
    "population_proper": ""
  }, 
  {
    "city": "Babušnica", 
    "lat": "43.0680", 
    "lng": "22.4115", 
    "country": "Serbia", 
    "iso2": "RS", 
    "admin_name": "Babušnica", 
    "capital": "admin", 
    "population": "", 
    "population_proper": ""
  }, 
  {
    "city": "Vlasotince", 
    "lat": "42.9667", 
    "lng": "22.1333", 
    "country": "Serbia", 
    "iso2": "RS", 
    "admin_name": "Vlasotince", 
    "capital": "admin", 
    "population": "", 
    "population_proper": ""
  }, 
  {
    "city": "Ljubovija", 
    "lat": "44.1869", 
    "lng": "19.3728", 
    "country": "Serbia", 
    "iso2": "RS", 
    "admin_name": "Ljubovija", 
    "capital": "admin", 
    "population": "", 
    "population_proper": ""
  }, 
  {
    "city": "Lajkovac", 
    "lat": "44.3667", 
    "lng": "20.1667", 
    "country": "Serbia", 
    "iso2": "RS", 
    "admin_name": "Lajkovac", 
    "capital": "admin", 
    "population": "", 
    "population_proper": ""
  }, 
  {
    "city": "Kosjerić", 
    "lat": "44.0000", 
    "lng": "19.9167", 
    "country": "Serbia", 
    "iso2": "RS", 
    "admin_name": "Kosjerić", 
    "capital": "admin", 
    "population": "", 
    "population_proper": ""
  }, 
  {
    "city": "Mionica", 
    "lat": "44.2500", 
    "lng": "20.0833", 
    "country": "Serbia", 
    "iso2": "RS", 
    "admin_name": "Mionica", 
    "capital": "admin", 
    "population": "", 
    "population_proper": ""
  }, 
  {
    "city": "Bela Palanka", 
    "lat": "43.2178", 
    "lng": "22.3067", 
    "country": "Serbia", 
    "iso2": "RS", 
    "admin_name": "Bela Palanka", 
    "capital": "admin", 
    "population": "", 
    "population_proper": ""
  }, 
  {
    "city": "Požarevac", 
    "lat": "44.6200", 
    "lng": "21.1897", 
    "country": "Serbia", 
    "iso2": "RS", 
    "admin_name": "Požarevac", 
    "capital": "admin", 
    "population": "", 
    "population_proper": ""
  }, 
  {
    "city": "Krupanj", 
    "lat": "44.3667", 
    "lng": "19.3667", 
    "country": "Serbia", 
    "iso2": "RS", 
    "admin_name": "Krupanj", 
    "capital": "admin", 
    "population": "", 
    "population_proper": ""
  }, 
  {
    "city": "Knjaževac", 
    "lat": "43.5000", 
    "lng": "22.4333", 
    "country": "Serbia", 
    "iso2": "RS", 
    "admin_name": "Knjaževac", 
    "capital": "admin", 
    "population": "", 
    "population_proper": ""
  }, 
  {
    "city": "Zaječar", 
    "lat": "43.9042", 
    "lng": "22.2847", 
    "country": "Serbia", 
    "iso2": "RS", 
    "admin_name": "Zaječar", 
    "capital": "admin", 
    "population": "", 
    "population_proper": ""
  }, 
  {
    "city": "Paraćin", 
    "lat": "43.8667", 
    "lng": "21.4167", 
    "country": "Serbia", 
    "iso2": "RS", 
    "admin_name": "Paraćin", 
    "capital": "admin", 
    "population": "", 
    "population_proper": ""
  }, 
  {
    "city": "Lebane", 
    "lat": "42.9167", 
    "lng": "21.7333", 
    "country": "Serbia", 
    "iso2": "RS", 
    "admin_name": "Lebane", 
    "capital": "admin", 
    "population": "", 
    "population_proper": ""
  }, 
  {
    "city": "Rača", 
    "lat": "44.2333", 
    "lng": "20.9833", 
    "country": "Serbia", 
    "iso2": "RS", 
    "admin_name": "Rača", 
    "capital": "admin", 
    "population": "", 
    "population_proper": ""
  }, 
  {
    "city": "Aleksinac", 
    "lat": "43.5383", 
    "lng": "21.7047", 
    "country": "Serbia", 
    "iso2": "RS", 
    "admin_name": "Aleksinac", 
    "capital": "admin", 
    "population": "", 
    "population_proper": ""
  }, 
  {
    "city": "Osečina", 
    "lat": "44.3667", 
    "lng": "19.6000", 
    "country": "Serbia", 
    "iso2": "RS", 
    "admin_name": "Osečina", 
    "capital": "admin", 
    "population": "", 
    "population_proper": ""
  }, 
  {
    "city": "Despotovac", 
    "lat": "44.0833", 
    "lng": "21.4333", 
    "country": "Serbia", 
    "iso2": "RS", 
    "admin_name": "Despotovac", 
    "capital": "admin", 
    "population": "", 
    "population_proper": ""
  }, 
  {
    "city": "Čajetina", 
    "lat": "43.7500", 
    "lng": "19.7167", 
    "country": "Serbia", 
    "iso2": "RS", 
    "admin_name": "Čajetina", 
    "capital": "admin", 
    "population": "", 
    "population_proper": ""
  }, 
  {
    "city": "Ljig", 
    "lat": "44.2213", 
    "lng": "20.2375", 
    "country": "Serbia", 
    "iso2": "RS", 
    "admin_name": "Ljig", 
    "capital": "admin", 
    "population": "", 
    "population_proper": ""
  }, 
  {
    "city": "Varvarin", 
    "lat": "43.7167", 
    "lng": "21.3667", 
    "country": "Serbia", 
    "iso2": "RS", 
    "admin_name": "Varvarin", 
    "capital": "admin", 
    "population": "", 
    "population_proper": ""
  }, 
  {
    "city": "Mali Zvornik", 
    "lat": "44.3992", 
    "lng": "19.1214", 
    "country": "Serbia", 
    "iso2": "RS", 
    "admin_name": "Mali Zvornik", 
    "capital": "admin", 
    "population": "", 
    "population_proper": ""
  }, 
  {
    "city": "Blace", 
    "lat": "43.2906", 
    "lng": "21.2847", 
    "country": "Serbia", 
    "iso2": "RS", 
    "admin_name": "Blace", 
    "capital": "admin", 
    "population": "", 
    "population_proper": ""
  }, 
  {
    "city": "Doljevac", 
    "lat": "43.1968", 
    "lng": "21.8334", 
    "country": "Serbia", 
    "iso2": "RS", 
    "admin_name": "Doljevac", 
    "capital": "admin", 
    "population": "", 
    "population_proper": ""
  }, 
  {
    "city": "Batočina", 
    "lat": "44.1500", 
    "lng": "21.0833", 
    "country": "Serbia", 
    "iso2": "RS", 
    "admin_name": "Batočina", 
    "capital": "admin", 
    "population": "", 
    "population_proper": ""
  }, 
  {
    "city": "Negotin", 
    "lat": "44.2167", 
    "lng": "22.5167", 
    "country": "Serbia", 
    "iso2": "RS", 
    "admin_name": "Negotin", 
    "capital": "admin", 
    "population": "", 
    "population_proper": ""
  }, 
  {
    "city": "Veliko Gradište", 
    "lat": "44.7500", 
    "lng": "21.5167", 
    "country": "Serbia", 
    "iso2": "RS", 
    "admin_name": "Veliko Gradište", 
    "capital": "admin", 
    "population": "", 
    "population_proper": ""
  }, 
  {
    "city": "Dimitrovgrad", 
    "lat": "43.0167", 
    "lng": "22.7833", 
    "country": "Serbia", 
    "iso2": "RS", 
    "admin_name": "Dimitrovgrad", 
    "capital": "admin", 
    "population": "", 
    "population_proper": ""
  }, 
  {
    "city": "Velika Plana", 
    "lat": "44.3333", 
    "lng": "21.0833", 
    "country": "Serbia", 
    "iso2": "RS", 
    "admin_name": "Velika Plana", 
    "capital": "admin", 
    "population": "", 
    "population_proper": ""
  }, 
  {
    "city": "Petrovac na Mlavi", 
    "lat": "44.3783", 
    "lng": "21.4194", 
    "country": "Serbia", 
    "iso2": "RS", 
    "admin_name": "Petrovac na Mlavi", 
    "capital": "admin", 
    "population": "", 
    "population_proper": ""
  }, 
  {
    "city": "Svilajnac", 
    "lat": "44.2167", 
    "lng": "21.2000", 
    "country": "Serbia", 
    "iso2": "RS", 
    "admin_name": "Svilajnac", 
    "capital": "admin", 
    "population": "", 
    "population_proper": ""
  }, 
  {
    "city": "Boljevac", 
    "lat": "43.8247", 
    "lng": "21.9519", 
    "country": "Serbia", 
    "iso2": "RS", 
    "admin_name": "Boljevac", 
    "capital": "admin", 
    "population": "", 
    "population_proper": ""
  }, 
  {
    "city": "Kladovo", 
    "lat": "44.6039", 
    "lng": "22.6072", 
    "country": "Serbia", 
    "iso2": "RS", 
    "admin_name": "Kladovo", 
    "capital": "admin", 
    "population": "", 
    "population_proper": ""
  }, 
  {
    "city": "Bojnik", 
    "lat": "43.0142", 
    "lng": "21.7180", 
    "country": "Serbia", 
    "iso2": "RS", 
    "admin_name": "Bojnik", 
    "capital": "admin", 
    "population": "", 
    "population_proper": ""
  }, 
  {
    "city": "Topola", 
    "lat": "44.2525", 
    "lng": "20.6761", 
    "country": "Serbia", 
    "iso2": "RS", 
    "admin_name": "Topola", 
    "capital": "admin", 
    "population": "", 
    "population_proper": ""
  }, 
  {
    "city": "Merošina", 
    "lat": "43.2833", 
    "lng": "21.7167", 
    "country": "Serbia", 
    "iso2": "RS", 
    "admin_name": "Merošina", 
    "capital": "admin", 
    "population": "", 
    "population_proper": ""
  }, 
  {
    "city": "Žitorađa", 
    "lat": "43.1833", 
    "lng": "21.7167", 
    "country": "Serbia", 
    "iso2": "RS", 
    "admin_name": "Žitorađa", 
    "capital": "admin", 
    "population": "", 
    "population_proper": ""
  }, 
  {
    "city": "Koceljeva", 
    "lat": "44.4708", 
    "lng": "19.8070", 
    "country": "Serbia", 
    "iso2": "RS", 
    "admin_name": "Koceljeva", 
    "capital": "admin", 
    "population": "", 
    "population_proper": ""
  }, 
  {
    "city": "Gadžin Han", 
    "lat": "43.2203", 
    "lng": "22.0258", 
    "country": "Serbia", 
    "iso2": "RS", 
    "admin_name": "Gadžin Han", 
    "capital": "admin", 
    "population": "", 
    "population_proper": ""
  }, 
  {
    "city": "Ćićevac", 
    "lat": "43.7167", 
    "lng": "21.4500", 
    "country": "Serbia", 
    "iso2": "RS", 
    "admin_name": "Ćićevac", 
    "capital": "admin", 
    "population": "", 
    "population_proper": ""
  }, 
  {
    "city": "Bosilegrad", 
    "lat": "42.5005", 
    "lng": "22.4728", 
    "country": "Serbia", 
    "iso2": "RS", 
    "admin_name": "Bosilegrad", 
    "capital": "admin", 
    "population": "", 
    "population_proper": ""
  }, 
  {
    "city": "Vladimirci", 
    "lat": "44.6167", 
    "lng": "19.7833", 
    "country": "Serbia", 
    "iso2": "RS", 
    "admin_name": "Vladimirci", 
    "capital": "admin", 
    "population": "", 
    "population_proper": ""
  }, 
  {
    "city": "Ražanj", 
    "lat": "43.6667", 
    "lng": "21.5500", 
    "country": "Serbia", 
    "iso2": "RS", 
    "admin_name": "Ražanj", 
    "capital": "admin", 
    "population": "", 
    "population_proper": ""
  }, 
  {
    "city": "Kučevo", 
    "lat": "44.4833", 
    "lng": "21.6667", 
    "country": "Serbia", 
    "iso2": "RS", 
    "admin_name": "Kučevo", 
    "capital": "admin", 
    "population": "", 
    "population_proper": ""
  }, 
  {
    "city": "Medveđa", 
    "lat": "42.8333", 
    "lng": "21.5833", 
    "country": "Serbia", 
    "iso2": "RS", 
    "admin_name": "Medveđa", 
    "capital": "admin", 
    "population": "", 
    "population_proper": ""
  }, 
  {
    "city": "Rekovac", 
    "lat": "43.8667", 
    "lng": "21.1333", 
    "country": "Serbia", 
    "iso2": "RS", 
    "admin_name": "Rekovac", 
    "capital": "admin", 
    "population": "", 
    "population_proper": ""
  }, 
  {
    "city": "Knić", 
    "lat": "43.9167", 
    "lng": "20.7167", 
    "country": "Serbia", 
    "iso2": "RS", 
    "admin_name": "Knić", 
    "capital": "admin", 
    "population": "", 
    "population_proper": ""
  }, 
  {
    "city": "Žabari", 
    "lat": "44.3562", 
    "lng": "21.2143", 
    "country": "Serbia", 
    "iso2": "RS", 
    "admin_name": "Žabari", 
    "capital": "admin", 
    "population": "", 
    "population_proper": ""
  }, 
  {
    "city": "Malo Crniće", 
    "lat": "44.5667", 
    "lng": "21.2833", 
    "country": "Serbia", 
    "iso2": "RS", 
    "admin_name": "Malo Crniće", 
    "capital": "admin", 
    "population": "", 
    "population_proper": ""
  }, 
  {
    "city": "Golubac", 
    "lat": "44.6530", 
    "lng": "21.6320", 
    "country": "Serbia", 
    "iso2": "RS", 
    "admin_name": "Golubac", 
    "capital": "admin", 
    "population": "", 
    "population_proper": ""
  }, 
  {
    "city": "Majdanpek", 
    "lat": "44.4167", 
    "lng": "21.9333", 
    "country": "Serbia", 
    "iso2": "RS", 
    "admin_name": "Majdanpek", 
    "capital": "admin", 
    "population": "", 
    "population_proper": ""
  }, 
  {
    "city": "Trgovište", 
    "lat": "42.3514", 
    "lng": "22.0921", 
    "country": "Serbia", 
    "iso2": "RS", 
    "admin_name": "Trgovište", 
    "capital": "admin", 
    "population": "", 
    "population_proper": ""
  }, 
  {
    "city": "Žagubica", 
    "lat": "44.1979", 
    "lng": "21.7902", 
    "country": "Serbia", 
    "iso2": "RS", 
    "admin_name": "Žagubica", 
    "capital": "admin", 
    "population": "", 
    "population_proper": ""
  }, 
  {
    "city": "Preševo", 
    "lat": "42.3067", 
    "lng": "21.6500", 
    "country": "Serbia", 
    "iso2": "RS", 
    "admin_name": "Preševo", 
    "capital": "admin", 
    "population": "", 
    "population_proper": ""
  }, 
  {
    "city": "Bujanovac", 
    "lat": "42.4667", 
    "lng": "21.7667", 
    "country": "Serbia", 
    "iso2": "RS", 
    "admin_name": "Bujanovac", 
    "capital": "admin", 
    "population": "", 
    "population_proper": ""
  }, 
  {
    "city": "Lazarevac", 
    "lat": "44.3667", 
    "lng": "20.2500", 
    "country": "Serbia", 
    "iso2": "RS", 
    "admin_name": "Beograd", 
    "capital": "minor", 
    "population": "", 
    "population_proper": ""
  }, 
  {
    "city": "Kostolac", 
    "lat": "44.7167", 
    "lng": "21.1667", 
    "country": "Serbia", 
    "iso2": "RS", 
    "admin_name": "Požarevac", 
    "capital": "minor", 
    "population": "", 
    "population_proper": ""
  }, 
  {
    "city": "Sopot", 
    "lat": "44.5193", 
    "lng": "20.5758", 
    "country": "Serbia", 
    "iso2": "RS", 
    "admin_name": "Beograd", 
    "capital": "minor", 
    "population": "", 
    "population_proper": ""
  }, 
  {
    "city": "Grocka", 
    "lat": "44.6720", 
    "lng": "20.7153", 
    "country": "Serbia", 
    "iso2": "RS", 
    "admin_name": "Beograd", 
    "capital": "minor", 
    "population": "", 
    "population_proper": ""
  }, 
  {
    "city": "Barajevo", 
    "lat": "44.5790", 
    "lng": "20.4179", 
    "country": "Serbia", 
    "iso2": "RS", 
    "admin_name": "Beograd", 
    "capital": "minor", 
    "population": "", 
    "population_proper": ""
  }
]